[
  {
    "id": "1",
    "price": "1.7",
    "location": "Estación de Servicio Repsol · Plaza de Legazpi, 9, Madrid",
    "description": "Sin descripción por el momento",
    "latitude": 40.39173220000001,
    "longitude": -3.6954649
  },
  {
    "id": "2",
    "price": "1.8",
    "location": "Estación de servicio Cepsa · Calle de Segovia, S/N, Madrid",
    "description": "Sin descripción por el momento",
    "latitude": 40.413778,
    "longitude": -3.721472
  },
  {
    "id": "3",
    "price": "1.2",
    "location": "Estación de Servicio Repsol · Paseo de Santa María de la Cabeza, 18, D, Madrid",
    "description": "Sin descripción por el momento",
    "latitude": 40.4058628,
    "longitude": -3.6951784
  },
  {
    "id": "4",
    "price": "1.3",
    "location": "Esmo S. A. · Calle de María de Molina, 21, Madrid",
    "description": "Sin descripción por el momento",
    "latitude": 40.43800399999999,
    "longitude": -3.6843911
  },
  {
    "id": "5",
    "price": "0.8",
    "location": "Estación de Servicio Repsol · Calle del Doctor Gómez Ulla, S.N, Madrid",
    "description": "Sin descripción por el momento",
    "latitude": 40.4296687,
    "longitude": -3.6680533
  },
  {
    "id": "6",
    "price": "1.9",
    "location": "Repsol gas station Alberto Aguilera · Calle de Alberto Aguilera, 9, Madrid",
    "description": "Sin descripción por el momento",
    "latitude": 40.42954759999999,
    "longitude": -3.708324599999999
  },
  {
    "id": "7",
    "price": "1.0",
    "location": "Estación de Servicio Repsol · Calle del Áncora, 39, Madrid",
    "description": "Sin descripción por el momento",
    "latitude": 40.4029044,
    "longitude": -3.6898198
  },
  {
    "id": "8",
    "price": "1.0",
    "location": "Estación de Servicio Repsol · Calle de Bravo Murillo, 12, Madrid",
    "description": "Sin descripción por el momento",
    "latitude": 40.434727,
    "longitude": -3.7041615
  },
  {
    "id": "9",
    "price": "1.0",
    "location": "Solred · Calle de Méndez Álvaro, 44, Madrid",
    "description": "Sin descripción por el momento",
    "latitude": 40.3985793,
    "longitude": -3.6840221
  },
  {
    "id": "10",
    "price": "1.0",
    "location": "Repsol · Calle de Ríos Rosas, 1, Madrid",
    "description": "Sin descripción por el momento",
    "latitude": 40.4422828,
    "longitude": -3.7037015
  },
  {
    "id": "11",
    "price": "1.0",
    "location": "Repsol · Calle de María de Molina, 21, Madrid",
    "description": "Sin descripción por el momento",
    "latitude": 40.4379906,
    "longitude": -3.6845525
  },
  {
    "id": "12",
    "price": "1.0",
    "location": "Estación de Servicio Repsol · Calle de Isaac Peral, S.N, Madrid",
    "description": "Sin descripción por el momento",
    "latitude": 40.4404049,
    "longitude": -3.7178825
  },
  {
    "id": "13",
    "price": "1.0",
    "location": "Estación de servicio Cepsa · Calle de Cavanilles, 58, Madrid",
    "description": "Sin descripción por el momento",
    "latitude": 40.404611,
    "longitude": -3.673306
  },
  {
    "id": "14",
    "price": "1.0",
    "location": "bp · Paseo de la Ermita del Santo, 76, Madrid",
    "description": "Sin descripción por el momento",
    "latitude": 40.3993022,
    "longitude": -3.7308916
  },
  {
    "id": "15",
    "price": "1.0",
    "location": "GasAuto Repsol AutoGas · Paseo de la Ermita del Santo, 80, Madrid",
    "description": "Sin descripción por el momento",
    "latitude": 40.3995903,
    "longitude": -3.732957900000001
  },
  {
    "id": "16",
    "price": "1.0",
    "location": "bp · Calle del Príncipe de Vergara, 106, Madrid",
    "description": "Sin descripción por el momento",
    "latitude": 40.4383804,
    "longitude": -3.6788114
  },
  {
    "id": "17",
    "price": "1.0",
    "location": "Repsol · Paseo del Marqués de Zafra, S.N, Madrid",
    "description": "Sin descripción por el momento",
    "latitude": 40.42597169999999,
    "longitude": -3.6646856
  },
  {
    "id": "18",
    "price": "1.0",
    "location": "Shell · Paseo de Santa María de la Cabeza, 168, Madrid",
    "description": "Sin descripción por el momento",
    "latitude": 40.38637569999999,
    "longitude": -3.716691
  },
  {
    "id": "19",
    "price": "1.0",
    "location": "Repsol · Calle del Príncipe de Vergara, 134, Madrid",
    "description": "Sin descripción por el momento",
    "latitude": 40.4435896,
    "longitude": -3.678281299999999
  },
  {
    "id": "20",
    "price": "1.0",
    "location": "certificados energeticos lcc · Paseo de La Habana, 9, Madrid",
    "description": "Sin descripción por el momento",
    "latitude": 40.4494169,
    "longitude": -3.689353300000001
  },
  {
    "id": "21",
    "price": "1.0",
    "location": "HUGO BIKES TALLERES DE MOTOS, TIENDA DE RECAMBIOS Y SERVICIO DE ITV · Calle de San Raimundo, 25, Madrid",
    "description": "Sin descripción por el momento",
    "latitude": 40.451744,
    "longitude": -3.7052589
  },
  {
    "id": "22",
    "price": "1.0",
    "location": "ITV MOTOS CON SERVICIO A DOMICILIO · Calle de San Raimundo, 21, Madrid",
    "description": "Sin descripción por el momento",
    "latitude": 40.45175,
    "longitude": -3.705026999999999
  },
  {
    "id": "23",
    "price": "1.0",
    "location": "Estación de servicio Cepsa · AVDA. DE LOS TOREROS, 2, Calle de Roberto Domingo, S/N, Madrid",
    "description": "Sin descripción por el momento",
    "latitude": 40.43231299999999,
    "longitude": -3.661496000000001
  },
  {
    "id": "24",
    "price": "1.0",
    "location": "bp · Calle de Ricardo Ortiz, 44, Madrid",
    "description": "Sin descripción por el momento",
    "latitude": 40.4260131,
    "longitude": -3.6582089
  },
  {
    "id": "25",
    "price": "1.0",
    "location": "bp · Avenida del Doctor Arce, 30, Madrid",
    "description": "Sin descripción por el momento",
    "latitude": 40.447979,
    "longitude": -3.6795296
  },
  {
    "id": "26",
    "price": "1.0",
    "location": "Cepsa · Avenida del Monte Igueldo, 108, Madrid",
    "description": "Sin descripción por el momento",
    "latitude": 40.39019400000001,
    "longitude": -3.671306
  },
  {
    "id": "27",
    "price": "1.0",
    "location": "REPSOL · Calle de Clara del Rey, 45, Madrid",
    "description": "Sin descripción por el momento",
    "latitude": 40.4440131,
    "longitude": -3.6685599
  },
  {
    "id": "28",
    "price": "1.0",
    "location": "Estación de servicio Cepsa · Calle de Berlín, S/N, Madrid",
    "description": "Sin descripción por el momento",
    "latitude": 40.441222,
    "longitude": -3.664333
  },
  {
    "id": "29",
    "price": "1.0",
    "location": "Repsol · Avenida Princesa Juana de Austria, 47, Madrid",
    "description": "Sin descripción por el momento",
    "latitude": 40.37859669999999,
    "longitude": -3.7185917
  },
  {
    "id": "30",
    "price": "1.0",
    "location": "Estación de Servicio Repsol · Calle de San Germán, S.N, Madrid",
    "description": "Sin descripción por el momento",
    "latitude": 40.4563817,
    "longitude": -3.6936021
  },
  {
    "id": "31",
    "price": "1.0",
    "location": "Estación de Servicio Repsol · Calle del Arroyo de las Pilillas, 56, Madrid",
    "description": "Sin descripción por el momento",
    "latitude": 40.4074135,
    "longitude": -3.6520347
  },
  {
    "id": "32",
    "price": "1.0",
    "location": "Estación de Servicio Repsol · Avenida de Ramón y Cajal, 2, Madrid",
    "description": "Sin descripción por el momento",
    "latitude": 40.45154729999999,
    "longitude": -3.6758983
  },
  {
    "id": "33",
    "price": "1.0",
    "location": "Repsol · Paseo de San Francisco de Sales, 44, Madrid",
    "description": "Sin descripción por el momento",
    "latitude": 40.4431134,
    "longitude": -3.711678
  },
  {
    "id": "34",
    "price": "1.0",
    "location": "Estación de servicio Moeve, antes Cepsa · Calle del Corazón de María, 76, Madrid",
    "description": "Sin descripción por el momento",
    "latitude": 40.447576,
    "longitude": -3.666072
  },
  {
    "id": "35",
    "price": "1.0",
    "location": "Estación de servicio Moeve, antes Cepsa · Calle Alcalá, 284, Madrid",
    "description": "Sin descripción por el momento",
    "latitude": 40.4322752,
    "longitude": -3.6519077
  },
  {
    "id": "36",
    "price": "1.2",
    "location": "Estación de Servicio Repsol · Calle de Cea Bermúdez, 32, Madrid",
    "description": "Sin descripción por el momento",
    "latitude": 40.4390873,
    "longitude": -3.709656799999999
  },
  {
    "id": "37",
    "price": "1.3",
    "location": "Cepsa · Avenida de la Ciudad de Barcelona, 61, Madrid",
    "description": "Sin descripción por el momento",
    "latitude": 40.402,
    "longitude": -3.676167
  },
  {
    "id": "38",
    "price": "1.3",
    "location": "Alcampo Vallecas Gas Station · Calle de José Paulete, 24, A, Madrid",
    "description": "Sin descripción por el momento",
    "latitude": 40.392785,
    "longitude": -3.6548531
  },
  {
    "id": "39",
    "price": "1.3",
    "location": "Estación de Servicio Repsol · Calle de Antonio López, 244, Madrid",
    "description": "Sin descripción por el momento",
    "latitude": 40.3829464,
    "longitude": -3.6960417
  },
  {
    "id": "40",
    "price": "1.3",
    "location": "Estación de servicio Cepsa OFELIA NIETO · Calle de Ofelia Nieto, 65, Madrid",
    "description": "Sin descripción por el momento",
    "latitude": 40.46148129999999,
    "longitude": -3.7090796
  },
  {
    "id": "41",
    "price": "1.3",
    "location": "Cepsa service station · Avenida de Portugal, 16, Madrid",
    "description": "Sin descripción por el momento",
    "latitude": 40.408083,
    "longitude": -3.744056
  },
  {
    "id": "42",
    "price": "1.3",
    "location": "Arturo Servicios Generales S.L. · Calle de Serrano, 240, Madrid",
    "description": "Sin descripción por el momento",
    "latitude": 40.45441719999999,
    "longitude": -3.6777818
  },
  {
    "id": "43",
    "price": "1.3",
    "location": "Estación de servicio Cepsa · Glorieta Embajadores, S/N, Madrid",
    "description": "Sin descripción por el momento",
    "latitude": 40.405278,
    "longitude": -3.703138999999999
  },
  {
    "id": "44",
    "price": "1.3",
    "location": "Gestión de Puntos de Ventas S.A. · Calle de Ríos Rosas, 1, Madrid",
    "description": "Sin descripción por el momento",
    "latitude": 40.4422994,
    "longitude": -3.703792
  },
  {
    "id": "45",
    "price": "1.3",
    "location": "Asociación Madrileña de Distribuidores Carburantes · Calle del Conde de Xiquena, 9, Madrid",
    "description": "Sin descripción por el momento",
    "latitude": 40.422923,
    "longitude": -3.6943332
  },
  {
    "id": "46",
    "price": "1.3",
    "location": "HUGO BIKES MOTORCYCLES AND WORKSHOPS ITV SERVICE · Calle de Segovia, 61, Madrid",
    "description": "Sin descripción por el momento",
    "latitude": 40.413715,
    "longitude": -3.718905
  },
  {
    "id": "47",
    "price": "1.3",
    "location": "Ballenoil Imperial · Ronda de Segovia, 37, Centro, Madrid",
    "description": "Sin descripción por el momento",
    "latitude": 40.4102862,
    "longitude": -3.7175263
  },
  {
    "id": "48",
    "price": "1.3",
    "location": "Estación de Servicio Madese - Repsol · Paseo de las Acacias, 8, Madrid",
    "description": "Sin descripción por el momento",
    "latitude": 40.40444720000001,
    "longitude": -3.705443799999999
  },
  {
    "id": "49",
    "price": "1.3",
    "location": "Shell · Calle de Alberto Aguilera, 18, Madrid",
    "description": "Sin descripción por el momento",
    "latitude": 40.430096,
    "longitude": -3.70869
  },
  {
    "id": "50",
    "price": "1.3",
    "location": "Gasolinera Gesa · Calle de Alberto Aguilera, Madrid",
    "description": "Sin descripción por el momento",
    "latitude": 40.4301074,
    "longitude": -3.708730699999999
  },
  {
    "id": "51",
    "price": "1.3",
    "location": "Repsol · Calle de Almagro, 7, Madrid",
    "description": "Sin descripción por el momento",
    "latitude": 40.4291947,
    "longitude": -3.694177100000001
  },
  {
    "id": "52",
    "price": "1.3",
    "location": "Depaso · Spain",
    "description": "Sin descripción por el momento",
    "latitude": 40.4018981,
    "longitude": -3.6996571
  },
  {
    "id": "53",
    "price": "1.3",
    "location": "Estación de servicio Cepsa · Calle de Embajadores, 83, Madrid",
    "description": "Sin descripción por el momento",
    "latitude": 40.401833,
    "longitude": -3.699694
  },
  {
    "id": "54",
    "price": "1.3",
    "location": "SHELL Goya · Calle de Goya, 24, Madrid",
    "description": "Sin descripción por el momento",
    "latitude": 40.4249148,
    "longitude": -3.6829031
  },
  {
    "id": "55",
    "price": "1.3",
    "location": "Laravaca - U.S. Bravo Murillo (Grupo Geslama) · Calle de Bravo Murillo, 12, Madrid",
    "description": "Sin descripción por el momento",
    "latitude": 40.4347303,
    "longitude": -3.7042314
  },
  {
    "id": "56",
    "price": "1.3",
    "location": "Shell · Paseo de Santa María de la Cabeza, 90, Madrid",
    "description": "Sin descripción por el momento",
    "latitude": 40.39783139999999,
    "longitude": -3.7025534
  },
  {
    "id": "57",
    "price": "1.3",
    "location": "REPSOL · Calle de Santa Engracia, 82, Madrid",
    "description": "Sin descripción por el momento",
    "latitude": 40.4374717,
    "longitude": -3.699624499999999
  },
  {
    "id": "58",
    "price": "1.3",
    "location": "Estación de servicio Cepsa SANTA ENGRACIA · Calle de Santa Engracia, 82, Madrid",
    "description": "Sin descripción por el momento",
    "latitude": 40.4375515,
    "longitude": -3.6996722
  },
  {
    "id": "59",
    "price": "1.3",
    "location": "Repsol · Calle de Rafael de Riego, 3, Madrid",
    "description": "Sin descripción por el momento",
    "latitude": 40.3969865,
    "longitude": -3.692676
  },
  {
    "id": "60",
    "price": "1.3",
    "location": "HUGO BIKES TALLERES DE MOTOS, TIENDA DE RECAMBIOS Y SERVICIO DE ITV · Calle de José Abascal, 5, Madrid",
    "description": "Sin descripción por el momento",
    "latitude": 40.43873000000001,
    "longitude": -3.701521
  }
]